브랜드,상호,주소,시도,군구,위도,경도,전화번호,서비스
할리스,충무로역점,"서울특별시 중구 퇴계로36길 2 (필동2가, 동국대학교충무로영상센터)",서울특별시,중구,37.5606439510409,126.993567232255,02-2268-8960,['주차']
할리스,FKI타워2호점,"서울특별시 영등포구 여의대로 24 (여의도동, 에프케이아이타워) 1층",서울특별시,영등포구,37.5221803249647,126.919916550827,02-782-3647,['서비스 없음']
할리스,신대방삼거리역점,서울특별시 동작구 상도로 60 (대방동) 1층~2층,서울특별시,동작구,37.4995614234716,126.927153186125,02-823-2377,['서비스 없음']
할리스,여의도포스트타워점,서울특별시 영등포구 여의나루로 60 포스트타워 여의도 1층,서울특별시,영등포구,37.5223003029771,126.926225192863,02-2135-5321,['주차']
할리스,대림역점,서울특별시 영등포구 도림로 140 대림빌딩 101호,서울특별시,영등포구,37.4930241705718,126.897628371815,02-834-1000,['테라스']
할리스,충정로역점,서울특별시 서대문구 경기대로 26-26 어바니엘충정로 201동 지하1층 102호,서울특별시,서대문구,37.5610226183,126.962192415514,02-363-0807,['주차']
할리스,서서울공원점,서울특별시 양천구 남부순환로58길 37 신월동 205-36,서울특별시,양천구,37.5291587223783,126.831707115465,070-4277-6756,"['테라스', '주차']"
할리스,경희대 청운관점,서울 동대문구 경희대로 26 청운관 지하1층,서울,동대문구,37.5939491407769,127.054890960564,,['주차']
할리스,덕성여대점,서울시 강북구 삼양로 547 1~3층,서울시,강북구,37.6516375000425,127.012463182729,02-6093-0011,"['테라스', '주차']"
할리스,당산1가점,"서울특별시 영등포구 양산로 146, DE' HAR (당산동1가 256,258)",서울특별시,영등포구,37.5235012531296,126.899170493803,02-2679-7942,['서비스 없음']
할리스,메리츠봉래타워점,서울시 중구 칠패로 28 메리츠강북타워 1층,서울시,중구,37.5592510458885,126.97211628887,02-753-8835,['주차']
할리스,고덕비즈밸리점,서울특별시 강동구 고덕비즈밸리로 38 (고덕동) KS타워 101호~102호,서울특별시,강동구,37.5662716017863,127.15962203189,070-7782-0055,"['테라스', '주차']"
할리스,파르나스몰점,"서울특별시 강남구 테헤란로 521 (삼성동, 파르나스타워) 파르나스몰 내 B1층 F-3a호",서울특별시,강남구,37.5091916919873,127.06080691987,02-3453-1024,['주차']
할리스,석계역점,서울시 노원구 화랑로 325 1층,서울시,노원구,37.6149530035255,127.064043360012,02-942-1345,['주차']
할리스,국민대 성곡도서관점,"서울특별시 성북구 정릉로 77 (정릉동, 국민대학교) 도서관 지하1층",서울특별시,성북구,37.6102919873059,126.998494142731,02-910-4954,['주차']
할리스,경희대 경영대점,서울특별시 동대문구 경희대로 26 (회기동) 경영대학 3층,서울특별시,동대문구,37.5939491407769,127.054890960564,,['주차']
할리스,명동역점,"서울특별시 중구 퇴계로 131 (충무로2가, 신일빌딩)",서울특별시,중구,37.5612833166249,126.986361886176,02-752-5925,['서비스 없음']
할리스,왕십리역점,서울특별시 성동구 왕십리광장로 17 (왕십리민자역사) 비트플렉스몰 3층 영풍문고 내,서울특별시,성동구,37.5614417528647,127.038394194396,02-2200-1303,['주차']
할리스,소월아트홀점,서울특별시 성동구 왕십리로 275-1 (행당동 133-2),서울특별시,성동구,37.5589650309639,127.036892174319,02-2294-7002,"['테라스', '흡연시설', '주차']"
할리스,송파거여역점,"서울특별시 송파구 오금로 513 (위례빌딩,1층)  거여동 37",서울특별시,송파구,37.4932241638816,127.145878722601,02-449-6232,['테라스']
할리스,서초마제스타시티점,서울특별시 서초구 서초대로38길 12 (힐스테이트서리풀),서울특별시,서초구,37.4904950346372,127.005381592272,02-6411-0063,['주차']
할리스,잠실새내역점,"서울특별시 송파구 올림픽로12길 8 (잠실동, 제일빌딩)",서울특별시,송파구,37.5109956587836,127.082785706876,02-416-2085,"['테라스', '흡연시설']"
할리스,중랑역점,서울특별시 중랑구 망우로 210 (상봉동),서울특별시,중랑구,37.5936673220132,127.07599534973,02.6085.7858,['흡연시설']
할리스,강변역점,"서울 광진구 구의강변로 64, 구의아크로리버 1층 구의동 589-10",서울,광진구,37.5358285666892,127.092583672192,070-7802-0303,['주차']
할리스,용산아이파크몰점,"서울특별시 용산구 한강대로23길 55, 서관 4층 (한강로3가, 용산역)",서울특별시,용산구,37.5297718014452,126.964741503485,02-2012-0473,['주차']
할리스,등촌역점,서울특별시 강서구 등촌로 229 (등촌동) 1~2층,서울특별시,강서구,37.5502242501914,126.863458548999,02-2655-2290,"['테라스', '주차']"
할리스,오류동점,"서울특별시 구로구 경인로 224 (오류동, 칸타빌레5차)",서울특별시,구로구,37.4964851629173,126.845741839583,02-2625-4854,['서비스 없음']
할리스,잠실학원사거리점,"서울특별시 송파구 석촌호수로 130 (삼전동, 신원빌딩) 삼전동 1-1외 3필지",서울특별시,송파구,37.5071964496082,127.091386305975,02-3431-4662,['주차']
할리스,발산역점,서울특별시 강서구 강서로 357 (내발산동),서울특별시,강서구,37.5576668863222,126.837387751506,02-2663-4976,['주차']
할리스,목동파리공원점,"서울특별시 양천구 목동서로 57 (목동, 현대파리지앙)",서울특별시,양천구,37.5366321308561,126.879863427781,02-2645-8497,['서비스 없음']
할리스,북한산DI점,"서울특별시 은평구 북한산로 248-8 (진관동, 자돈)",서울특별시,은평구,37.6518581234721,126.938554425363,02-3157-4843,"['테라스', '주차']"
할리스,신도림테크노마트점,서울특별시 구로구 새말로 97 (신도림테크노마트) 104~106호,서울특별시,구로구,37.5070438414784,126.890227293528,02-2111-1300,['주차']
할리스,KG타워점,"서울특별시 중구 통일로 92 (순화동, 케이지타워) 1층",서울특별시,중구,37.5635955637684,126.969222436022,02-777-5559,['주차']
할리스,올림픽공원역점,"서울특별시 송파구 올림픽로 424 (방이동, 올림픽공원) (A-3동 C구역 )",서울특별시,송파구,37.5203396980951,127.115517876627,02-420-9997,['주차']
할리스,신촌역점,"서울특별시 마포구 신촌로 88 (노고산동, 태영빌딩) 2층",서울특별시,마포구,37.5553097221974,126.935331733458,02-325-7588,['서비스 없음']
할리스,노원역점,"서울특별시 노원구 노해로 488 (상계동, 근호빌딩) 1층",서울특별시,노원구,37.6543222923845,127.062168567542,02-933-8824,"['테라스', '주차']"
할리스,가산대륭22차점,"서울특별시 금천구 가산디지털1로 146 109,110,111호",서울특별시,금천구,37.4787027326644,126.883148970201,02-2059-1131,['주차']
할리스,연트럴파크점,서울특별시 마포구 동교로 233 (연남동),서울특별시,마포구,37.5609588167788,126.924024982068,02-335-7805,['테라스']
할리스,강남우리라운지점,서울특별시 강남구 테헤란로 301 역삼동 701-02 삼정빌딩 L층,서울특별시,강남구,37.5031256356337,127.043068810036,02-566-1002,['주차']
할리스,이태원역점,서울특별시 용산구 이태원로 180 2층~3층,서울특별시,용산구,37.5342217426698,126.994224816687,02-749-8752,['서비스 없음']
할리스,오목교역점,"서울특별시 양천구 오목로 344 (목동, 청학빌딩) 1층",서울특별시,양천구,37.5237531022074,126.875143110053,02-2062-8405,['주차']
할리스,시흥사거리점,서울특별시 금천구 시흥대로 225 1층 시흥동 994-9,서울특별시,금천구,37.4537894156684,126.900461934958,02-804-9226,['주차']
할리스,강남역2점,"서울특별시 강남구 강남대로 422 (역삼동) 역삼동816,816-7,816-8",서울특별시,강남구,37.5003941401087,127.026984908497,02-568-9056,"['테라스', '주차']"
할리스,숙대입구점,서울특별시 용산구 청파로 276 2층~3층,서울특별시,용산구,37.5442899576622,126.970939489942,02-704-9636,['테라스']
할리스,홍제천점,"서울특별시 서대문구 홍제내길 52,1~2층 (홍제동 361-49)",서울특별시,서대문구,37.584802093985,126.936166344795,02-396-0903,['서비스 없음']
할리스,종각역점,서울특별시 종로구 종로 60-1 종로2가 102-3,서울특별시,종로구,37.5699362991594,126.984167036879,02-736-3399,['서비스 없음']
할리스,장승배기역점,"서울특별시 동작구 장승배기로11가길 11, 1층 105호 (상도파크자이)",서울특별시,동작구,37.5055659930949,126.938911240196,02-812-9330,['주차']
할리스,중앙대점,서울특별시 동작구 흑석로 77 (흑석동) 1~4층,서울특별시,동작구,37.5069826807571,126.958246364678,02-3280-3280,"['테라스', '흡연시설']"
할리스,독립문역점,"서울특별시 종로구 통일로 230 (무악동, 경희궁롯데캐슬) 상가동 1층,117호 ",서울특별시,종로구,37.574370395598,126.958628749004,010-2594-7308,['주차']
할리스,성균관대점,서울특별시 종로구 성균관로 6 (명륜2가 204) 1~4층,서울특별시,종로구,37.5835462396105,126.998405014649,02-743-8526,['테라스']
할리스,태릉입구역점,"서울특별시 노원구 화랑로 453 (공릉동, 그린힐) 1층",서울특별시,노원구,37.6186229019207,127.07756822431,02-976-0078,['주차']
할리스,구로디지털점,"서울특별시 구로구 디지털로31길 12  1층 105,106호 (구로동 197-21)",서울특별시,구로구,37.4851756855256,126.894869839407,070-7576-4842,"['테라스', '주차']"
할리스,청계천점,"서울특별시 종로구  청계천로 81 1,2,3,4층",서울특별시,종로구,37.5685338389728,126.986587063819,02-735-5462,['서비스 없음']
할리스,청담삼성로점,서울특별시 강남구 삼성로119길 8 (강남대청담카이로스빌딩) 1층,서울특별시,강남구,37.516242883757,127.050632935983,02-541-7755,['서비스 없음']
할리스,고덕그라시움후문점,"서울특별시 강동구 동남로82길 77-1 (고덕동) 2층~4층,고덕동 258-4",서울특별시,강동구,37.5608655820894,127.161379637067,02-2088-0831,['주차']
할리스,보라매역점,서울특별시 영등포구 여의대방로 145 (세인트빌딩) 신길동 505 1층,서울특별시,영등포구,37.5002104691442,126.919990345257,02-845-1097,['서비스 없음']
할리스,미아역점,"서울특별시 강북구 도봉로 203, 1-2층 미아동 209-2",서울특별시,강북구,37.6267429749591,127.02558867528,02-980-7374,['테라스']
할리스,신림역점,서울특별시 관악구 신림로 313 (신림동) 2-3층,서울특별시,관악구,37.4822379419784,126.929691761099,02-877-5596,['흡연시설']
할리스,대방역점,"서울특별시 동작구 알마타길 6 (대방동, 파밀리에 하늘마루) 101호, 102호",서울특별시,동작구,37.5098570948466,126.924954157932,02-825-6369,"['테라스', '주차']"
할리스,강남대로논현점,"서울특별시 강남구 강남대로 520 (논현동 164번지, 영동빌딩)",서울특별시,강남구,37.5086773753858,127.023051010941,02-6012-2372,['서비스 없음']
할리스,홍대거리점,"서울특별시 마포구 어울마당로 76-1, 2~4층 (서교동 364-19) 할리스",서울특별시,마포구,37.5518321491599,126.921657269616,02-323-3795,['테라스']
할리스,구로거리공원점,"서울특별시 구로구 구로중앙로28길 52,1~2층 구로동 109-1",서울특별시,구로구,37.4997031298634,126.888450893119,02-838-7008,['주차']
할리스,교대역점,서울특별시 서초구 반포대로30길 81 (웅진타워) 1층,서울특별시,서초구,37.4928727432965,127.012979871645,02-521-8944,['주차']
할리스,구로디지털단지역점,서울특별시 구로구 디지털로32나길 38 (서림빌딩) 1층,서울특별시,구로구,37.4845445851058,126.901198477768,02-851-3365,"['테라스', '주차']"
할리스,공덕경의선숲길점,"서울특별시 마포구 백범로28길 22, 일양빌딩 신관 1층 (염리동 164-1)",서울특별시,마포구,37.544603767606,126.946646153695,02-701-3967,['주차']
할리스,홍대역2번출구점,서울특별시 마포구 동교로 200 1~3층 동교동 158-26,서울특별시,마포구,37.5577603250168,126.923123267715,02-332-8079,['주차']
할리스,코엑스점,"서울특별시 강남구 영동대로 513, 코엑스 지하 1층  C113호 (삼성동 159)  할리스",서울특별시,강남구,37.5118239121138,127.059159043842,02-6002-3100,"['테라스', '주차']"
할리스,서대문농협생명빌딩점,"서울시 서대문구 통일로 87  미근동 257, NH농협생명빌딩 동관 1층",서울시,서대문구,37.5627767312819,126.968512766878,02-364-7787,['주차']
할리스,명동퍼시픽호텔점,"서울특별시 중구 퇴계로20길 2 (남산동2가, 퍼시픽호텔) 1층",서울특별시,중구,37.5597163723303,126.985434663205,02-3789-8747,"['흡연시설', '주차']"
할리스,보라매병원점,서울시 동작구 보라매로5길 20 서울특별시보라매병원 희망관 1층,서울시,동작구,37.493013748157,126.924332456243,02-831-3085,['주차']
할리스,공덕점,"서울특별시 마포구  마포대로 143 (공덕동, 마포공덕파크팰리스 Ⅱ) 1층 (114~121호)",서울특별시,마포구,37.5474542024771,126.953094314075,02-701-5785,['주차']
할리스,홍대역점,서울특별시 마포구 어울마당로 111 (동교동) 2~4층,서울특별시,마포구,37.5548424769371,126.922757662623,02-323-7791,['테라스']
할리스,신촌연세로점,"서울특별시 서대문구 연세로 5, 1층 (창천동 30-7) 할리스",서울특별시,서대문구,37.556128952497,126.936574472337,02-322-3684,['서비스 없음']
할리스,구로역점,서울특별시 구로구 새말로 18-29 (구로동),서울특별시,구로구,37.5018232438079,126.883187024004,02-862-3216,['서비스 없음']
할리스,공덕역북카페점,"서울특별시 마포구 마포대로 100 (공덕동, 공덕역) 북카페 지하1층, 공덕동 423-29",서울특별시,마포구,37.5445267873155,126.951363830233,없음,['서비스 없음']
할리스,FKI타워점,"서울특별시 영등포구 여의대로 24 (여의도동, 전국경제인연합회회관) 지하 1층 B109~111호",서울특별시,영등포구,37.5221803249647,126.919916550827,02-786-3485,['주차']
할리스,한양대병원점,"서울특별시 성동구 왕십리로 222-1, 한양대학교병원 본관 1층 (사근동 110, 한양대학부속병원) 할리스",서울특별시,성동구,37.5585815432773,127.045715688792,02-2281-2116,['주차']
할리스,종로5가점,서울특별시 종로구 동호로 401,서울특별시,종로구,37.5701966555827,127.001666240298,02-2266-1989,['서비스 없음']
할리스,여의도파이낸스타워점,"서울특별시 영등포구 국제금융로2길 32, 여의도파이낸스타워 1층(여의도동 23-8)",서울특별시,영등포구,37.5238640247561,126.924142368161,02-761-3154,['주차']
할리스,서울대병원점,"서울특별시 종로구 대학로 101 (연건동, 서울대학교의과대학)",서울특별시,종로구,37.5804523853297,126.997196437908,02-741-5815,['주차']
할리스,구로디지털뉴스테이점,서울시 영등포구 시흥대로 595 104~5호,서울시,영등포구,37.4860957417996,126.903464704536,070-7547-4100,['주차']
할리스,센터포인트점,"서울특별시 종로구 새문안로5길 31, 센터포인트광화문빌딩 1층 (도렴동 65, 센터포인트 광화문) 할리스",서울특별시,종로구,37.5729765145796,126.974351284671,02-6031-6213,['서비스 없음']
할리스,백석예술대학교점,서울특별시 서초구 방배로9길 23 (백석예술대 신관 1층) 방배동 981-17,서울특별시,서초구,37.4803713866046,126.996896954333,02-585-9150,['서비스 없음']
할리스,난곡사거리점,서울 관악구 남부순환로 1489 신림동 526-13,서울,관악구,37.4824306834797,126.916178390768,02-865-0012,"['흡연시설', '주차']"
할리스,선릉샹제리제점,"서울특별시 강남구 테헤란로 406 (대치동, 샹제리제센터) A동 1층",서울특별시,강남구,37.5043809944112,127.049963989803,02-501-4255,['주차']
할리스,(하)만남의광장점,서울특별시 서초구 양재대로12길 73-71 (만남의광장),서울특별시,서초구,37.4596446385464,127.042624862658,02-578-3372,['주차']
할리스,수서점,"서울특별시 강남구 밤고개로1길 10 지하1층,25호(수서현대벤쳐빌)",서울특별시,강남구,37.4880244867416,127.101844450006,02-451-0723,['주차']
할리스,고속터미널영동선점,서울특별시 서초구 신반포로 194 (강남고속버스터미널) 2층 A-2호,서울특별시,서초구,37.5064357442307,127.006834366246,02-591-1555,['서비스 없음']
할리스,가산디지털단지점,"서울특별시 금천구 가산디지털1로 186 (가산동, 제이플라츠) 가산동 459-11",서울특별시,금천구,37.4819130872905,126.881581110867,02-2028-7111,['주차']
할리스,남부터미널점,"서울특별시 서초구 서초중앙로 52 (서초동, 영진빌딩)",서울특별시,서초구,37.4867307777424,127.015750032123,02-584-9500,['서비스 없음']
할리스,고덕리앤파크점,서울특별시 강동구 상일로 151 1층(고덕동 182),서울특별시,강동구,37.5605064231101,127.170498412422,02-441-1121,['주차']
할리스,한티역점,서울특별시 강남구 도곡로 414 (삼성빌딩),서울특별시,강남구,37.4967911284621,127.055932522618,02-538-8886,['주차']
할리스,충정래미안점,서울특별시 중구 중림로 21 (더플레이스충정로) B204호,서울특별시,중구,37.558980785321,126.966068233101,02-363-1388,"['테라스', '주차']"
할리스,노량진역점,서울특별시 동작구 노량진로 157 2-5층,서울특별시,동작구,37.5139791754713,126.9433563073,02-827-0280,"['24시간', '흡연시설']"
할리스,굽은다리역점,"서울특별시 강동구 양재대로 1591 , 1층 (천호동 31-2)",서울특별시,강동구,37.5476808183203,127.143015082712,02-488-5077,"['24시간', '주차']"
할리스,서울대사거리점,"서울특별시 관악구 관악로 172, 2층 봉천동 857-4",서울특별시,관악구,37.4805127079803,126.952949414718,02-877-6070,['흡연시설']
할리스,도심공항점,"서울특별시 강남구 테헤란로87길 22 (삼성동, 한국도심공항터미널, 2층)   203호",서울특별시,강남구,37.5096322564759,127.059443354483,02-2016-5400,['주차']
할리스,광화문LG점,"서울특별시 종로구 새문안로 58 (신문로2가, LG광화문빌딩) 1층, 지하1층",서울특별시,종로구,37.5692750422255,126.971580539397,02-720-6994,"['흡연시설', '주차']"
할리스,건대입구점,서울특별시 광진구 아차산로 235 (화양동)  235 (화양동),서울특별시,광진구,37.5406129331373,127.069530225646,02-463-1983,"['테라스', '흡연시설']"
할리스,청담점,서울특별시 강남구 학동로 517 1층,서울특별시,강남구,37.5199593388019,127.055262835759,02-515-9915,['테라스']
할리스,이수역점,"서울특별시 동작구 동작대로 83 (사당동, 헤라피스빌딩) B1~1층",서울특별시,동작구,37.484012495411,126.981550873132,02-588-4845,"['흡연시설', '주차']"
할리스,방배점,"서울특별시 서초구 남부순환로 2335 (방배동, 옥스포드빌딩)",서울특별시,서초구,37.4778338201861,127.006606891853,02-581-4858,['서비스 없음']
할리스,테크노마트점,"서울특별시 광진구 광나루로56길 85, 9층 14호 (테크노마트21)",서울특별시,광진구,37.535725176732,127.095692162256,02-3424-8484,['주차']
할리스,역삼스타점,"서울특별시 강남구 테헤란로26길 12, 1층 (역삼동 736-56) 할리스",서울특별시,강남구,37.4994465349977,127.035856382455,02-501-4142,['서비스 없음']
할리스,김포공항점,서울특별시 강서구 하늘길 112 김포공항 국내선청사 1층,서울특별시,강서구,37.558958766307,126.803085626211,02-2064-0312,['주차']
할리스,여의도하나증권점,서울특별시 영등포구  의사당대로 82 1층 할리스,서울특별시,영등포구,37.522682850023,126.921853372269,02-761-7231,['주차']
할리스,광나루역점,"서울특별시 광진구 천호대로 808, 광장현대홈타운 제1202동 상가 1층 (광장동 580) 할리스",서울특별시,광진구,37.545073523534,127.102739572749,02-444-0542,['서비스 없음']
할리스,세로수길점,서울특별시 강남구 강남대로152길 41 (신사동 536-6) 할리스,서울특별시,강남구,37.5182483612793,127.02268745515,02-511-1473,['테라스']
할리스,목동점,"서울특별시 양천구 목동서로 159-1 CBS 1,2층 CBS 1,2층 할리스",서울특별시,양천구,37.5282318199269,126.874990723123,02-2062-1063,['주차']
할리스,당산역점,서울특별시 영등포구 당산로 219,서울특별시,영등포구,37.5334793403404,126.901240424052,02-2631-3446,['서비스 없음']
할리스,연신내점,"서울특별시 은평구 연서로 212, (대조동 199-28) 할리스",서울특별시,은평구,37.6171824552927,126.919682360459,02-388-3977,['흡연시설']
할리스,잠실광고회관점,"서울특별시 송파구 올림픽로35길 137, 한국방송문화회관 1층 (신천동 7-11) 할리스",서울특별시,송파구,37.5159272595028,127.099643159822,02-2144-0888,['주차']
할리스,배명사거리점,"서울특별시 송파구 백제고분로 275, 1층 (석촌동 14-7) 할리스",서울특별시,송파구,37.5027783021727,127.097338135134,02-422-4915,['주차']
할리스,노원문화의거리점,서울특별시 노원구 노해로81길 22-26 할리스,서울특별시,노원구,37.6558967804046,127.063981843761,02-935-8231,['서비스 없음']
할리스,도곡점,"서울특별시 강남구 논현로28길 54, 덕원빌딩 1층 (도곡동 422-2) 할리스",서울특별시,강남구,37.4845278499807,127.046195947569,02-6204-3311,['서비스 없음']
할리스,강남역점,"서울특별시 강남구 강남대로 402, 시계탑빌딩 B1~1층 (역삼동 820-11)  할리스",서울특별시,강남구,37.4987767279505,127.027830562268,02-555-0890,['주차']
할리스,용산더프라임점,서울특별시 용산구 원효로90길 11 더프라임타워 업무동 1층,서울특별시,용산구,37.5403958008247,126.969718522289,02-6362-7990,['주차']
할리스,세종로점,"서울특별시 종로구 세종대로 161, 2~3층 (세종로 200) 할리스",서울특별시,종로구,37.5706817202422,126.976266788802,02-720-5582,['흡연시설']
할리스,합정역점,서울특별시 마포구 양화로 36 (합정동 374-1) 할리스,서울특별시,마포구,37.5485091311027,126.913337734086,02-6204-1234,['흡연시설']
할리스,신림점,서울특별시 관악구 신림로 353-1,서울특별시,관악구,37.4859535218631,126.92924154589,02-877-0019,['서비스 없음']
할리스,태평로점,"서울특별시 중구 세종대로 64, 해남빌딩 1층 (태평로2가 70-5) 할리스.",서울특별시,중구,37.561973319432,126.976696252264,02-755-7795,['서비스 없음']
할리스,신촌점,서울특별시 서대문구 연세로 34 (창천동 31-12)  할리스,서울특별시,서대문구,37.5586151120539,126.937150931665,02-393-2004,['서비스 없음']
